{"type":"FeatureCollection","features":[{"type":"Feature","properties":{"url":"https://www.bergen.kommune.no/omkommunen/avdelinger/skoler/garnes-skule","navn":"Garnes skule","type":"barneskole","bydel":"Arna","bydelId":1},"geometry":{"type":"Point","coordinates":[5.463434645619746,60.4416225769987]}},{"type":"Feature","properties":{"url":"https://www.bergen.kommune.no/omkommunen/avdelinger/skoler/garnes-ungdomsskole","navn":"Garnes ungdomsskole","type":"ungdomsskole","bydel":"Arna","bydelId":1},"geometry":{"type":"Point","coordinates":[5.460997825168226,60.44028160310465]}},{"type":"Feature","properties":{"url":"https://www.bergen.kommune.no/omkommunen/avdelinger/skoler/haugland-skole","navn":"Haugland skole","type":"barneskole","bydel":"Arna","bydelId":1},"geometry":{"type":"Point","coordinates":[5.400259757475819,60.44806328895967]}},{"type":"Feature","properties":{"url":"https://www.bergen.kommune.no/omkommunen/avdelinger/skoler/lone-skole","navn":"Lone skole","type":"barneskole","bydel":"Arna","bydelId":1},"geometry":{"type":"Point","coordinates":[5.455612396215769,60.376722380339636]}},{"type":"Feature","properties":{"url":"https://www.bergen.kommune.no/omkommunen/avdelinger/skoler/trengereid-oppveksttun-skole","navn":"Trengereid oppveksttun - skole","type":"barneskole","bydel":"Arna","bydelId":1},"geometry":{"type":"Point","coordinates":[5.628476324749755,60.427382469141506]}},{"type":"Feature","properties":{"url":"https://www.bergen.kommune.no/omkommunen/avdelinger/skoler/ytre-arna-barne-og-ungdomskole","navn":"Ytre Arna barne og ungdomskole","type":"barne- og ungdomsskole","bydel":"Arna","bydelId":1},"geometry":{"type":"Point","coordinates":[5.431777258360896,60.46207848070447]}},{"type":"Feature","properties":{"url":"https://www.bergen.kommune.no/omkommunen/avdelinger/skoler/adnamarka-skole","navn":"Ådnamarka skole","type":"barneskole","bydel":"Arna","bydelId":1},"geometry":{"type":"Point","coordinates":[5.475763863716943,60.41144625801899]}},{"type":"Feature","properties":{"url":"https://www.bergen.kommune.no/omkommunen/avdelinger/skoler/christi-krybbe-skoler","navn":"Christi Krybbe skoler","type":"barneskole","bydel":"Bergenhus","bydelId":2},"geometry":{"type":"Point","coordinates":[5.3277709576858845,60.39690943916212]}},{"type":"Feature","properties":{"url":"https://www.bergen.kommune.no/omkommunen/avdelinger/skoler/haukeland-skole","navn":"Haukeland skole","type":"barneskole","bydel":"Bergenhus","bydelId":2},"geometry":{"type":"Point","coordinates":[5.361686326035631,60.38031491903376]}},{"type":"Feature","properties":{"url":"https://www.bergen.kommune.no/omkommunen/avdelinger/skoler/hellen-skole","navn":"Hellen skole","type":"barneskole","bydel":"Bergenhus","bydelId":2},"geometry":{"type":"Point","coordinates":[5.298218985120864,60.42595836497018]}},{"type":"Feature","properties":{"url":"https://www.bergen.kommune.no/omkommunen/avdelinger/skoler/krohnengen-skole","navn":"Krohnengen skole","type":"barneskole","bydel":"Bergenhus","bydelId":2},"geometry":{"type":"Point","coordinates":[5.328172667723676,60.4004349074018]}},{"type":"Feature","properties":{"url":"https://www.bergen.kommune.no/omkommunen/avdelinger/skoler/mohlenpris-skole","navn":"Møhlenpris skole","type":"barneskole","bydel":"Bergenhus","bydelId":2},"geometry":{"type":"Point","coordinates":[5.319973282283481,60.38827193918037]}},{"type":"Feature","properties":{"url":"https://www.bergen.kommune.no/omkommunen/avdelinger/skoler/nordnes-skole","navn":"Nordnes skole","type":"barneskole","bydel":"Bergenhus","bydelId":2},"geometry":{"type":"Point","coordinates":[5.308042802598191,60.397235111333224]}},{"type":"Feature","properties":{"url":"https://www.bergen.kommune.no/omkommunen/avdelinger/skoler/rothaugen-skole","navn":"Rothaugen skole","type":"ungdomsskole","bydel":"Bergenhus","bydelId":2},"geometry":{"type":"Point","coordinates":[5.322102045419305,60.40399728609641]}},{"type":"Feature","properties":{"url":"https://www.bergen.kommune.no/omkommunen/avdelinger/skoler/apeltun-skole","navn":"Apeltun skole","type":"barneskole","bydel":"Fana","bydelId":3},"geometry":{"type":"Point","coordinates":[5.342126715282376,60.297689417399276]}},{"type":"Feature","properties":{"url":"https://www.bergen.kommune.no/omkommunen/avdelinger/skoler/hop-oppveksttun-skole","navn":"Hop oppveksttun skole","type":"ungdomsskole","bydel":"Fana","bydelId":3},"geometry":{"type":"Point","coordinates":[5.343365433960577,60.32417573368357]}},{"type":"Feature","properties":{"url":"https://www.bergen.kommune.no/omkommunen/avdelinger/skoler/kaland-skole","navn":"Kaland skole","type":"barneskole","bydel":"Fana","bydelId":3},"geometry":{"type":"Point","coordinates":[5.4050110907804045,60.27801639936594]}},{"type":"Feature","properties":{"url":"https://www.bergen.kommune.no/omkommunen/avdelinger/skoler/kirkevoll-skole","navn":"Kirkevoll skole","type":"barne- og ungdomsskole","bydel":"Fana","bydelId":3},"geometry":{"type":"Point","coordinates":[5.347578291038347,60.26477206502174]}},{"type":"Feature","properties":{"url":"https://www.bergen.kommune.no/omkommunen/avdelinger/skoler/kringlebotn-skole","navn":"Kringlebotn skole","type":"barneskole","bydel":"Fana","bydelId":3},"geometry":{"type":"Point","coordinates":[5.371882915564923,60.32818459583147]}},{"type":"Feature","properties":{"url":"https://www.bergen.kommune.no/omkommunen/avdelinger/skoler/krokeide-skole","navn":"Krokeide skole","type":"barneskole","bydel":"Fana","bydelId":3},"geometry":{"type":"Point","coordinates":[5.295277362856601,60.2319696866415]}},{"type":"Feature","properties":{"url":"https://www.bergen.kommune.no/omkommunen/avdelinger/skoler/midtun-skole","navn":"Midtun skole","type":"barneskole","bydel":"Fana","bydelId":3},"geometry":{"type":"Point","coordinates":[5.3569694741070055,60.314168379713074]}},{"type":"Feature","properties":{"url":"https://www.bergen.kommune.no/omkommunen/avdelinger/skoler/nattland-skole","navn":"Nattland skole","type":"barne- og ungdomsskole","bydel":"Fana","bydelId":3},"geometry":{"type":"Point","coordinates":[5.372946405096489,60.33688706486743]}},{"type":"Feature","properties":{"url":"https://www.bergen.kommune.no/omkommunen/avdelinger/skoler/nordvik-skole","navn":"Nordvik skole","type":"barneskole","bydel":"Fana","bydelId":3},"geometry":{"type":"Point","coordinates":[5.369029755328943,60.229741239961996]}},{"type":"Feature","properties":{"url":"https://www.bergen.kommune.no/omkommunen/avdelinger/skoler/paradis-skole","navn":"Paradis skole","type":"barneskole","bydel":"Fana","bydelId":3},"geometry":{"type":"Point","coordinates":[5.342554750229772,60.33853446008346]}},{"type":"Feature","properties":{"url":"https://www.bergen.kommune.no/omkommunen/avdelinger/skoler/riple-skole","navn":"Riple skole","type":"barneskole","bydel":"Fana","bydelId":3},"geometry":{"type":"Point","coordinates":[5.436224601533052,60.31113335177104]}},{"type":"Feature","properties":{"url":"https://www.bergen.kommune.no/omkommunen/avdelinger/skoler/radalslien-skole","navn":"Rådalslien skole","type":"ungdomsskole","bydel":"Fana","bydelId":3},"geometry":{"type":"Point","coordinates":[5.3290575132391975,60.29182777098648]}},{"type":"Feature","properties":{"url":"https://www.bergen.kommune.no/omkommunen/avdelinger/skoler/skjold-skole","navn":"Skjold skole","type":"barneskole","bydel":"Fana","bydelId":3},"geometry":{"type":"Point","coordinates":[5.332067636263019,60.30502484158453]}},{"type":"Feature","properties":{"url":"https://www.bergen.kommune.no/omkommunen/avdelinger/skoler/slatthaug-skole","navn":"Slåtthaug skole","type":"ungdomsskole","bydel":"Fana","bydelId":3},"geometry":{"type":"Point","coordinates":[5.358857127513119,60.31056200821766]}},{"type":"Feature","properties":{"url":"https://www.bergen.kommune.no/omkommunen/avdelinger/skoler/smoras-skole","navn":"Smørås skole","type":"barneskole","bydel":"Fana","bydelId":3},"geometry":{"type":"Point","coordinates":[5.350356727506868,60.301996596879995]}},{"type":"Feature","properties":{"url":"https://www.bergen.kommune.no/omkommunen/avdelinger/skoler/storetveit-skole","navn":"Storetveit skole","type":"ungdomsskole","bydel":"Fana","bydelId":3},"geometry":{"type":"Point","coordinates":[5.3471835798247085,60.345942207269545]}},{"type":"Feature","properties":{"url":"https://www.bergen.kommune.no/omkommunen/avdelinger/skoler/sadalen-skole","navn":"Sædalen skole","type":"barneskole","bydel":"Fana","bydelId":3},"geometry":{"type":"Point","coordinates":[5.392472020437555,60.349534448165066]}},{"type":"Feature","properties":{"url":"https://www.bergen.kommune.no/omkommunen/avdelinger/skoler/ulsmag-skole","navn":"Ulsmåg skole","type":"barneskole","bydel":"Fana","bydelId":3},"geometry":{"type":"Point","coordinates":[5.3758453073205,60.314693943536035]}},{"type":"Feature","properties":{"url":"https://www.bergen.kommune.no/omkommunen/avdelinger/skoler/bones-skole","navn":"Bønes skole","type":"barneskole","bydel":"Fyllingsdalen","bydelId":4},"geometry":{"type":"Point","coordinates":[5.308614948407207,60.332400371450596]}},{"type":"Feature","properties":{"url":"https://www.bergen.kommune.no/omkommunen/avdelinger/skoler/fjellsdalen-skole","navn":"Fjellsdalen skole","type":"barneskole","bydel":"Fyllingsdalen","bydelId":4},"geometry":{"type":"Point","coordinates":[5.29423888479977,60.33574819833822]}},{"type":"Feature","properties":{"url":"https://www.bergen.kommune.no/omkommunen/avdelinger/skoler/lynghaug-skole","navn":"Lynghaug skole","type":"ungdomsskole","bydel":"Fyllingsdalen","bydelId":4},"geometry":{"type":"Point","coordinates":[5.300001228852071,60.35641130048402]}},{"type":"Feature","properties":{"url":"https://www.bergen.kommune.no/omkommunen/avdelinger/skoler/lyshovden-oppveksttun-skole","navn":"Lyshovden oppveksttun - skole","type":"barneskole","bydel":"Fyllingsdalen","bydelId":4},"geometry":{"type":"Point","coordinates":[5.296019022719067,60.343069459836464]}},{"type":"Feature","properties":{"url":"https://www.bergen.kommune.no/omkommunen/avdelinger/skoler/lovas-oppveksttun-skole","navn":"Løvås oppveksttun - skole","type":"barneskole","bydel":"Fyllingsdalen","bydelId":4},"geometry":{"type":"Point","coordinates":[5.291727110762406,60.35354705358015]}},{"type":"Feature","properties":{"url":"https://www.bergen.kommune.no/omkommunen/avdelinger/skoler/ortun-skole","navn":"Ortun skole","type":"ungdomsskole","bydel":"Fyllingsdalen","bydelId":4},"geometry":{"type":"Point","coordinates":[5.287752972776365,60.345427394832754]}},{"type":"Feature","properties":{"url":"https://www.bergen.kommune.no/omkommunen/avdelinger/skoler/seljedalen-skole","navn":"Seljedalen skole","type":"barneskole","bydel":"Fyllingsdalen","bydelId":4},"geometry":{"type":"Point","coordinates":[5.285388768719988,60.36077647694184]}},{"type":"Feature","properties":{"url":"https://www.bergen.kommune.no/omkommunen/avdelinger/skoler/salen-oppveksttun-skole","navn":"Sælen oppveksttun skole","type":"barneskole","bydel":"Fyllingsdalen","bydelId":4},"geometry":{"type":"Point","coordinates":[5.282557443352508,60.34677419729556]}},{"type":"Feature","properties":{"url":"https://www.bergen.kommune.no/omkommunen/avdelinger/skoler/varden-skole","navn":"Varden skole","type":"barneskole","bydel":"Fyllingsdalen","bydelId":4},"geometry":{"type":"Point","coordinates":[5.271462545405296,60.33942527176593]}},{"type":"Feature","properties":{"url":"https://www.bergen.kommune.no/omkommunen/avdelinger/skoler/alvoen-skole","navn":"Alvøen skole","type":"barneskole","bydel":"Laksevåg","bydelId":5},"geometry":{"type":"Point","coordinates":[5.187171633396177,60.365212758246535]}},{"type":"Feature","properties":{"url":"https://www.bergen.kommune.no/omkommunen/avdelinger/skoler/bjorndalsskogen-skole","navn":"Bjørndalsskogen skole","type":"barneskole","bydel":"Laksevåg","bydelId":5},"geometry":{"type":"Point","coordinates":[5.243545512965877,60.34785208361096]}},{"type":"Feature","properties":{"url":"https://www.bergen.kommune.no/omkommunen/avdelinger/skoler/damsgard-skole","navn":"Damsgård skole","type":"barneskole","bydel":"Laksevåg","bydelId":5},"geometry":{"type":"Point","coordinates":[5.301335990026028,60.38207421460339]}},{"type":"Feature","properties":{"url":"https://www.bergen.kommune.no/omkommunen/avdelinger/skoler/holen-skole","navn":"Holen skole","type":"barne- og ungdomsskole","bydel":"Laksevåg","bydelId":5},"geometry":{"type":"Point","coordinates":[5.282889553454587,60.389541481169]}},{"type":"Feature","properties":{"url":"https://www.bergen.kommune.no/omkommunen/avdelinger/skoler/kjokkelvik-skole","navn":"Kjøkkelvik skole","type":"barne- og ungdomsskole","bydel":"Laksevåg","bydelId":5},"geometry":{"type":"Point","coordinates":[5.231133368560762,60.373486916160346]}},{"type":"Feature","properties":{"url":"https://www.bergen.kommune.no/omkommunen/avdelinger/skoler/loddefjord-skole","navn":"Loddefjord skole","type":"barneskole","bydel":"Laksevåg","bydelId":5},"geometry":{"type":"Point","coordinates":[5.2317811807769345,60.36364467359533]}},{"type":"Feature","properties":{"url":"https://www.bergen.kommune.no/omkommunen/avdelinger/skoler/mathopen-skole","navn":"Mathopen skole","type":"barneskole","bydel":"Laksevåg","bydelId":5},"geometry":{"type":"Point","coordinates":[5.210268576745846,60.33419675696227]}},{"type":"Feature","properties":{"url":"https://www.bergen.kommune.no/omkommunen/avdelinger/skoler/nygardslien-skole","navn":"Nygårdslien skole","type":"barneskole","bydel":"Laksevåg","bydelId":5},"geometry":{"type":"Point","coordinates":[5.2741958125142805,60.382664681129995]}},{"type":"Feature","properties":{"url":"https://www.bergen.kommune.no/omkommunen/avdelinger/skoler/olsvik-skole","navn":"Olsvik skole","type":"barne- og ungdomsskole","bydel":"Laksevåg","bydelId":5},"geometry":{"type":"Point","coordinates":[5.215547387825345,60.38186207133542]}},{"type":"Feature","properties":{"url":"https://www.bergen.kommune.no/omkommunen/avdelinger/skoler/sandgotna-skole","navn":"Sandgotna skole","type":"ungdomsskole","bydel":"Laksevåg","bydelId":5},"geometry":{"type":"Point","coordinates":[5.2310005645758775,60.3623910833552]}},{"type":"Feature","properties":{"url":"https://www.bergen.kommune.no/omkommunen/avdelinger/skoler/vadmyra-skole","navn":"Vadmyra skole","type":"barneskole","bydel":"Laksevåg","bydelId":5},"geometry":{"type":"Point","coordinates":[5.227511427926117,60.360080851973855]}},{"type":"Feature","properties":{"url":"https://www.bergen.kommune.no/omkommunen/avdelinger/skoler/aurdalslia-skole","navn":"Aurdalslia skole","type":"barneskole","bydel":"Ytrebygda","bydelId":6},"geometry":{"type":"Point","coordinates":[5.281639469828685,60.30723516982496]}},{"type":"Feature","properties":{"url":"https://www.bergen.kommune.no/omkommunen/avdelinger/skoler/hjellestad-skole","navn":"Hjellestad skole","type":"barneskole","bydel":"Ytrebygda","bydelId":6},"geometry":{"type":"Point","coordinates":[5.253564635697346,60.257403653217715]}},{"type":"Feature","properties":{"url":"https://www.bergen.kommune.no/omkommunen/avdelinger/skoler/liland-skole","navn":"Liland skole","type":"barneskole","bydel":"Ytrebygda","bydelId":6},"geometry":{"type":"Point","coordinates":[5.245852054983113,60.28617410363037]}},{"type":"Feature","properties":{"url":"https://www.bergen.kommune.no/omkommunen/avdelinger/skoler/ra-skole","navn":"Rå skole","type":"ungdomsskole","bydel":"Ytrebygda","bydelId":6},"geometry":{"type":"Point","coordinates":[5.323486360361407,60.29660811227209]}},{"type":"Feature","properties":{"url":"https://www.bergen.kommune.no/omkommunen/avdelinger/skoler/skeie-skole","navn":"Skeie skole","type":"barneskole","bydel":"Ytrebygda","bydelId":6},"geometry":{"type":"Point","coordinates":[5.31463075845552,60.28680790472659]}},{"type":"Feature","properties":{"url":"https://www.bergen.kommune.no/omkommunen/avdelinger/skoler/skranevatnet-skole","navn":"Skranevatnet skole","type":"barne- og ungdomsskole","bydel":"Ytrebygda","bydelId":6},"geometry":{"type":"Point","coordinates":[5.283565510358603,60.300493813270485]}},{"type":"Feature","properties":{"url":"https://www.bergen.kommune.no/omkommunen/avdelinger/skoler/soreide-skole","navn":"Søreide skole","type":"barneskole","bydel":"Ytrebygda","bydelId":6},"geometry":{"type":"Point","coordinates":[5.270895190621425,60.31804360905692]}},{"type":"Feature","properties":{"url":"https://www.bergen.kommune.no/omkommunen/avdelinger/skoler/sorashogda-skole","navn":"Søråshøgda skole","type":"barneskole","bydel":"Ytrebygda","bydelId":6},"geometry":{"type":"Point","coordinates":[5.319174602958431,60.30273547051087]}},{"type":"Feature","properties":{"url":"https://www.bergen.kommune.no/omkommunen/avdelinger/skoler/ytrebygda-skole","navn":"Ytrebygda skole","type":"ungdomsskole","bydel":"Ytrebygda","bydelId":6},"geometry":{"type":"Point","coordinates":[5.270214632779472,60.286861174722674]}},{"type":"Feature","properties":{"url":"https://www.bergen.kommune.no/omkommunen/avdelinger/skoler/fridalen-skole","navn":"Fridalen skole","type":"barneskole","bydel":"Årstad","bydelId":7},"geometry":{"type":"Point","coordinates":[5.359821371442813,60.363366363771995]}},{"type":"Feature","properties":{"url":"https://www.bergen.kommune.no/omkommunen/avdelinger/skoler/gimle-oppveksttun-skole","navn":"Gimle oppveksttun - skole","type":"ungdomsskole","bydel":"Årstad","bydelId":7},"geometry":{"type":"Point","coordinates":[5.353851169210993,60.371480724403476]}},{"type":"Feature","properties":{"url":"https://www.bergen.kommune.no/omkommunen/avdelinger/skoler/kronstad-skole","navn":"Kronstad skole","type":"barneskole","bydel":"Årstad","bydelId":7},"geometry":{"type":"Point","coordinates":[5.347259040232509,60.37556010169452]}},{"type":"Feature","properties":{"url":"https://www.bergen.kommune.no/omkommunen/avdelinger/skoler/landas-skole","navn":"Landås skole","type":"barneskole","bydel":"Årstad","bydelId":7},"geometry":{"type":"Point","coordinates":[5.36839926322759,60.363250492517075]}},{"type":"Feature","properties":{"url":"https://www.bergen.kommune.no/omkommunen/avdelinger/skoler/minde-skole","navn":"Minde skole","type":"barneskole","bydel":"Årstad","bydelId":7},"geometry":{"type":"Point","coordinates":[5.336476117207371,60.354725435383415]}},{"type":"Feature","properties":{"url":"https://www.bergen.kommune.no/omkommunen/avdelinger/skoler/ny-krohnborg-avdeling-skole","navn":"Ny-Krohnborg - avdeling skole","type":"barne- og ungdomsskole","bydel":"Årstad","bydelId":7},"geometry":{"type":"Point","coordinates":[5.333525272030286,60.375325841408994]}},{"type":"Feature","properties":{"url":"https://www.bergen.kommune.no/omkommunen/avdelinger/skoler/slettebakken-skole","navn":"Slettebakken skole","type":"barneskole","bydel":"Årstad","bydelId":7},"geometry":{"type":"Point","coordinates":[5.358255149201161,60.356267835307456]}},{"type":"Feature","properties":{"url":"https://www.bergen.kommune.no/omkommunen/avdelinger/skoler/blokkhaugen-skole","navn":"Blokkhaugen skole","type":"ungdomsskole","bydel":"Åsane","bydelId":8},"geometry":{"type":"Point","coordinates":[5.316793965960808,60.46694761838136]}},{"type":"Feature","properties":{"url":"https://www.bergen.kommune.no/omkommunen/avdelinger/skoler/breimyra-skole","navn":"Breimyra skole","type":"ungdomsskole","bydel":"Åsane","bydelId":8},"geometry":{"type":"Point","coordinates":[5.366763762876724,60.45849623543687]}},{"type":"Feature","properties":{"url":"https://www.bergen.kommune.no/omkommunen/avdelinger/skoler/eidsvag-skole","navn":"Eidsvåg skole","type":"barne- og ungdomsskole","bydel":"Åsane","bydelId":8},"geometry":{"type":"Point","coordinates":[5.306720804269602,60.43690859704892]}},{"type":"Feature","properties":{"url":"https://www.bergen.kommune.no/omkommunen/avdelinger/skoler/flaktveit-skole","navn":"Flaktveit skole","type":"barneskole","bydel":"Åsane","bydelId":8},"geometry":{"type":"Point","coordinates":[5.359987529737861,60.46423425912399]}},{"type":"Feature","properties":{"url":"https://www.bergen.kommune.no/omkommunen/avdelinger/skoler/haukedalen-skole","navn":"Haukedalen skole","type":"barneskole","bydel":"Åsane","bydelId":8},"geometry":{"type":"Point","coordinates":[5.302296207751814,60.46508981434043]}},{"type":"Feature","properties":{"url":"https://www.bergen.kommune.no/omkommunen/avdelinger/skoler/haukas-skole","navn":"Haukås skole","type":"barneskole","bydel":"Åsane","bydelId":8},"geometry":{"type":"Point","coordinates":[5.384837239978497,60.49068814030115]}},{"type":"Feature","properties":{"url":"https://www.bergen.kommune.no/omkommunen/avdelinger/skoler/hordvik-skole","navn":"Hordvik skole","type":"barneskole","bydel":"Åsane","bydelId":8},"geometry":{"type":"Point","coordinates":[5.3101907595066535,60.519912044203814]}},{"type":"Feature","properties":{"url":"https://www.bergen.kommune.no/omkommunen/avdelinger/skoler/kalvatraet-skole","navn":"Kalvatræet skole","type":"barneskole","bydel":"Åsane","bydelId":8},"geometry":{"type":"Point","coordinates":[5.320210726775055,60.445632234940156]}},{"type":"Feature","properties":{"url":"https://www.bergen.kommune.no/omkommunen/avdelinger/skoler/kyrkjekrinsen-skole","navn":"Kyrkjekrinsen skole","type":"barne- og ungdomsskole","bydel":"Åsane","bydelId":8},"geometry":{"type":"Point","coordinates":[5.342711481171054,60.47556228345504]}},{"type":"Feature","properties":{"url":"https://www.bergen.kommune.no/omkommunen/avdelinger/skoler/li-skole","navn":"Li skole","type":"barneskole","bydel":"Åsane","bydelId":8},"geometry":{"type":"Point","coordinates":[5.352124971552869,60.46438765133083]}},{"type":"Feature","properties":{"url":"https://www.bergen.kommune.no/omkommunen/avdelinger/skoler/mjolkeraen-skole","navn":"Mjølkeråen skole","type":"barne- og ungdomsskole","bydel":"Åsane","bydelId":8},"geometry":{"type":"Point","coordinates":[5.266006658107215,60.48527205647239]}},{"type":"Feature","properties":{"url":"https://www.bergen.kommune.no/omkommunen/avdelinger/skoler/rolland-skole","navn":"Rolland skole","type":"barneskole","bydel":"Åsane","bydelId":8},"geometry":{"type":"Point","coordinates":[5.332586324483705,60.463482555772345]}},{"type":"Feature","properties":{"url":"https://www.bergen.kommune.no/omkommunen/avdelinger/skoler/salhus-skole","navn":"Salhus skole","type":"barneskole","bydel":"Åsane","bydelId":8},"geometry":{"type":"Point","coordinates":[5.26429655798581,60.50423465793365]}},{"type":"Feature","properties":{"url":"https://www.bergen.kommune.no/omkommunen/avdelinger/skoler/tertnes-skole","navn":"Tertnes skole","type":"barneskole","bydel":"Åsane","bydelId":8},"geometry":{"type":"Point","coordinates":[5.2853069828086685,60.45686009511068]}},{"type":"Feature","properties":{"url":"https://www.bergen.kommune.no/omkommunen/avdelinger/skoler/ulsetskogen-skole","navn":"Ulsetskogen skole","type":"barneskole","bydel":"Åsane","bydelId":8},"geometry":{"type":"Point","coordinates":[5.315653134998076,60.461118683543056]}},{"type":"Feature","properties":{"url":"https://www.bergen.kommune.no/omkommunen/avdelinger/skoler/astveit-skole","navn":"Åstveit skole","type":"ungdomsskole","bydel":"Åsane","bydelId":8},"geometry":{"type":"Point","coordinates":[5.309424510416177,60.455706083611105]}}]}